{"type": "FeatureCollection", "features": [{"type": "Feature", "geometry": {"type": "Point", "coordinates": [4.3707, 50.836]}, "properties": {"URAU_CODE": "BE001K1", "URAU_CATG": "K", "CNTR_CODE": "BE", "URAU_NAME": "Bruxelles / Brussel (greater city)", "CITY_CPTL": "Y", "CITY_KERN": null, "FUA_CODE": null, "NUTS3_2016": "BE100", "AREA_SQM": 162512870.137409, "NUTS3_2021": "BE100", "FID": "BE001K1"}, "id": "BE001K1"}, {"type": "Feature", "geometry": {"type": "Point", "coordinates": [4.453, 50.4161]}, "properties": {"URAU_CODE": "BE004K1", "URAU_CATG": "K", "CNTR_CODE": "BE", "URAU_NAME": "Charleroi (greater city)", "CITY_CPTL": "N", "CITY_KERN": "BE004K1", "FUA_CODE": "BE004L3", "NUTS3_2016": "BE322", "AREA_SQM": 130138376.73655, "NUTS3_2021": "BE32B", "FID": "BE004K1"}, "id": "BE004K1"}, {"type": "Feature", "geometry": {"type": "Point", "coordinates": [5.5527, 50.6356]}, "properties": {"URAU_CODE": "BE005K1", "URAU_CATG": "K", "CNTR_CODE": "BE", "URAU_NAME": "Liège (greater city)", "CITY_CPTL": "N", "CITY_KERN": "BE005K1", "FUA_CODE": "BE005L3", "NUTS3_2016": "BE332", "AREA_SQM": 212752955.040875, "NUTS3_2021": "BE332", "FID": "BE005K1"}, "id": "BE005K1"}, {"type": "Feature", "geometry": {"type": "Point", "coordinates": [3.9455, 50.4402]}, "properties": {"URAU_CODE": "BE009K1", "URAU_CATG": "K", "CNTR_CODE": "BE", "URAU_NAME": "Mons (greater city)", "CITY_CPTL": "N", "CITY_KERN": "BE009K1", "FUA_CODE": "BE009L2", "NUTS3_2016": "BE323", "AREA_SQM": 198740675.984355, "NUTS3_2021": "BE323", "FID": "BE009K1"}, "id": "BE009K1"}, {"type": "Feature", "geometry": {"type": "Point", "coordinates": [4.1757, 50.4782]}, "properties": {"URAU_CODE": "BE014K1", "URAU_CATG": "K", "CNTR_CODE": "BE", "URAU_NAME": "La Louvière (greater city)", "CITY_CPTL": "N", "CITY_KERN": "BE014K1", "FUA_CODE": "BE014K1", "NUTS3_2016": "BE325", "AREA_SQM": 188732668.228794, "NUTS3_2021": "BE329", "FID": "BE014K1"}, "id": "BE014K1"}, {"type": "Feature", "geometry": {"type": "Point", "coordinates": [5.8691, 50.5936]}, "properties": {"URAU_CODE": "BE015K1", "URAU_CATG": "K", "CNTR_CODE": "BE", "URAU_NAME": "Verviers (greater city)", "CITY_CPTL": "N", "CITY_KERN": "BE015K1", "FUA_CODE": "BE015L1", "NUTS3_2016": "BE335", "AREA_SQM": 47048216.1274626, "NUTS3_2021": "BE335", "FID": "BE015K1"}, "id": "BE015K1"}, {"type": "Feature", "geometry": {"type": "Point", "coordinates": [8.5938, 47.3855]}, "properties": {"URAU_CODE": "CH001K1", "URAU_CATG": "K", "CNTR_CODE": "CH", "URAU_NAME": "Zurich", "CITY_CPTL": null, "CITY_KERN": null, "FUA_CODE": null, "NUTS3_2016": "CH040", "AREA_SQM": 238110043.225861, "NUTS3_2021": "CH040", "FID": "CH001K1"}, "id": "CH001K1"}, {"type": "Feature", "geometry": {"type": "Point", "coordinates": [6.1173, 46.1969]}, "properties": {"URAU_CODE": "CH002K1", "URAU_CATG": "K", "CNTR_CODE": "CH", "URAU_NAME": "Geneva", "CITY_CPTL": null, "CITY_KERN": null, "FUA_CODE": null, "NUTS3_2016": "CH013", "AREA_SQM": 82378860.6342454, "NUTS3_2021": "CH013", "FID": "CH002K1"}, "id": "CH002K1"}, {"type": "Feature", "geometry": {"type": "Point", "coordinates": [7.6011, 47.5274]}, "properties": {"URAU_CODE": "CH003K1", "URAU_CATG": "K", "CNTR_CODE": "CH", "URAU_NAME": "Basel", "CITY_CPTL": null, "CITY_KERN": null, "FUA_CODE": null, "NUTS3_2016": "CH031", "AREA_SQM": 119925552.721498, "NUTS3_2021": "CH031", "FID": "CH003K1"}, "id": "CH003K1"}, {"type": "Feature", "geometry": {"type": "Point", "coordinates": [7.4273, 46.9369]}, "properties": {"URAU_CODE": "CH004K1", "URAU_CATG": "K", "CNTR_CODE": "CH", "URAU_NAME": "Bern", "CITY_CPTL": null, "CITY_KERN": null, "FUA_CODE": null, "NUTS3_2016": "CH021", "AREA_SQM": 139138531.235493, "NUTS3_2021": "CH021", "FID": "CH004K1"}, "id": "CH004K1"}, {"type": "Feature", "geometry": {"type": "Point", "coordinates": [6.6415, 46.5444]}, "properties": {"URAU_CODE": "CH005K1", "URAU_CATG": "K", "CNTR_CODE": "CH", "URAU_NAME": "Lausanne", "CITY_CPTL": null, "CITY_KERN": null, "FUA_CODE": null, "NUTS3_2016": "CH011", "AREA_SQM": 91713213.6197661, "NUTS3_2021": "CH011", "FID": "CH005K1"}, "id": "CH005K1"}, {"type": "Feature", "geometry": {"type": "Point", "coordinates": [8.7342, 47.4968]}, "properties": {"URAU_CODE": "CH006K1", "URAU_CATG": "K", "CNTR_CODE": "CH", "URAU_NAME": "Winterthur", "CITY_CPTL": "N", "CITY_KERN": null, "FUA_CODE": null, "NUTS3_2016": "CH040", "AREA_SQM": 68030973.6275149, "NUTS3_2021": "CH040", "FID": "CH006K1"}, "id": "CH006K1"}, {"type": "Feature", "geometry": {"type": "Point", "coordinates": [9.3752, 47.4221]}, "properties": {"URAU_CODE": "CH007K1", "URAU_CATG": "K", "CNTR_CODE": "CH", "URAU_NAME": "St. Gallen", "CITY_CPTL": "N", "CITY_KERN": null, "FUA_CODE": null, "NUTS3_2016": "CH055", "AREA_SQM": 39567994.5121999, "NUTS3_2021": "CH055", "FID": "CH007K1"}, "id": "CH007K1"}, {"type": "Feature", "geometry": {"type": "Point", "coordinates": [8.2787, 47.0546]}, "properties": {"URAU_CODE": "CH008K1", "URAU_CATG": "K", "CNTR_CODE": "CH", "URAU_NAME": "Lucerne", "CITY_CPTL": null, "CITY_KERN": null, "FUA_CODE": null, "NUTS3_2016": "CH061", "AREA_SQM": 105580514.648436, "NUTS3_2021": "CH061", "FID": "CH008K1"}, "id": "CH008K1"}, {"type": "Feature", "geometry": {"type": "Point", "coordinates": [8.9948, 46.0399]}, "properties": {"URAU_CODE": "CH009K1", "URAU_CATG": "K", "CNTR_CODE": "CH", "URAU_NAME": "Lugano", "CITY_CPTL": null, "CITY_KERN": null, "FUA_CODE": null, "NUTS3_2016": "CH070", "AREA_SQM": 88263798.4462331, "NUTS3_2021": "CH070", "FID": "CH009K1"}, "id": "CH009K1"}, {"type": "Feature", "geometry": {"type": "Point", "coordinates": [7.2608, 47.14]}, "properties": {"URAU_CODE": "CH010K1", "URAU_CATG": "K", "CNTR_CODE": "CH", "URAU_NAME": "Biel/Bienne", "CITY_CPTL": "N", "CITY_KERN": null, "FUA_CODE": null, "NUTS3_2016": "CH021", "AREA_SQM": 31960462.7663689, "NUTS3_2021": "CH021", "FID": "CH010K1"}, "id": "CH010K1"}, {"type": "Feature", "geometry": {"type": "Point", "coordinates": [7.6232, 46.7646]}, "properties": {"URAU_CODE": "CH011K1", "URAU_CATG": "K", "CNTR_CODE": "CH", "URAU_NAME": "Thun", "CITY_CPTL": "N", "CITY_KERN": null, "FUA_CODE": null, "NUTS3_2016": "CH021", "AREA_SQM": 40379024.0773817, "NUTS3_2021": "CH021", "FID": "CH011K1"}, "id": "CH011K1"}, {"type": "Feature", "geometry": {"type": "Point", "coordinates": [8.5253, 47.1782]}, "properties": {"URAU_CODE": "CH012K1", "URAU_CATG": "K", "CNTR_CODE": "CH", "URAU_NAME": "Zug", "CITY_CPTL": "N", "CITY_KERN": null, "FUA_CODE": null, "NUTS3_2016": "CH066", "AREA_SQM": 52186205.0806883, "NUTS3_2021": "CH066", "FID": "CH012K1"}, "id": "CH012K1"}, {"type": "Feature", "geometry": {"type": "Point", "coordinates": [33.5917, 34.9359]}, "properties": {"URAU_CODE": "CY002K1", "URAU_CATG": "K", "CNTR_CODE": "CY", "URAU_NAME": "Greater Larnaka", "CITY_CPTL": "N", "CITY_KERN": null, "FUA_CODE": null, "NUTS3_2016": "CY000", "AREA_SQM": 88799244.7394263, "NUTS3_2021": "CY000", "FID": "CY002K1"}, "id": "CY002K1"}, {"type": "Feature", "geometry": {"type": "Point", "coordinates": [12.3993, 55.677]}, "properties": {"URAU_CODE": "DK001K1", "URAU_CATG": "K", "CNTR_CODE": "DK", "URAU_NAME": "København", "CITY_CPTL": "N", "CITY_KERN": null, "FUA_CODE": null, "NUTS3_2016": "DK012", "AREA_SQM": 366020076.6252, "NUTS3_2021": "DK012", "FID": "DK001K1"}, "id": "DK001K1"}, {"type": "Feature", "geometry": {"type": "Point", "coordinates": [23.7567, 38.0217]}, "properties": {"URAU_CODE": "EL001K1", "URAU_CATG": "K", "CNTR_CODE": "EL", "URAU_NAME": "Athens      ", "CITY_CPTL": "Y", "CITY_KERN": null, "FUA_CODE": null, "NUTS3_2016": "EL303", "AREA_SQM": 612752645.578928, "NUTS3_2021": "EL303", "FID": "EL001K1"}, "id": "EL001K1"}, {"type": "Feature", "geometry": {"type": "Point", "coordinates": [22.9529, 40.6383]}, "properties": {"URAU_CODE": "EL002K1", "URAU_CATG": "K", "CNTR_CODE": "EL", "URAU_NAME": "Thessaloniki", "CITY_CPTL": "N", "CITY_KERN": null, "FUA_CODE": null, "NUTS3_2016": "EL522", "AREA_SQM": 112672602.112487, "NUTS3_2021": "EL522", "FID": "EL002K1"}, "id": "EL002K1"}, {"type": "Feature", "geometry": {"type": "Point", "coordinates": [-3.708, 40.4325]}, "properties": {"URAU_CODE": "ES001K1", "URAU_CATG": "K", "CNTR_CODE": "ES", "URAU_NAME": "Madrid", "CITY_CPTL": null, "CITY_KERN": null, "FUA_CODE": null, "NUTS3_2016": "ES300", "AREA_SQM": 1232304581.10415, "NUTS3_2021": "ES300", "FID": "ES001K1"}, "id": "ES001K1"}, {"type": "Feature", "geometry": {"type": "Point", "coordinates": [2.1309, 41.4318]}, "properties": {"URAU_CODE": "ES002K2", "URAU_CATG": "K", "CNTR_CODE": "ES", "URAU_NAME": "Barcelona", "CITY_CPTL": null, "CITY_KERN": null, "FUA_CODE": null, "NUTS3_2016": "ES511", "AREA_SQM": 598737336.337243, "NUTS3_2021": "ES511", "FID": "ES002K2"}, "id": "ES002K2"}, {"type": "Feature", "geometry": {"type": "Point", "coordinates": [-0.4448, 39.4714]}, "properties": {"URAU_CODE": "ES003K1", "URAU_CATG": "K", "CNTR_CODE": "ES", "URAU_NAME": "Valencia", "CITY_CPTL": null, "CITY_KERN": null, "FUA_CODE": null, "NUTS3_2016": "ES523", "AREA_SQM": 400980078.31812, "NUTS3_2021": "ES523", "FID": "ES003K1"}, "id": "ES003K1"}, {"type": "Feature", "geometry": {"type": "Point", "coordinates": [-5.9914, 37.3789]}, "properties": {"URAU_CODE": "ES004K1", "URAU_CATG": "K", "CNTR_CODE": "ES", "URAU_NAME": "Sevilla", "CITY_CPTL": null, "CITY_KERN": null, "FUA_CODE": null, "NUTS3_2016": "ES618", "AREA_SQM": 218655411.255946, "NUTS3_2021": "ES618", "FID": "ES004K1"}, "id": "ES004K1"}, {"type": "Feature", "geometry": {"type": "Point", "coordinates": [-1.5672, 42.7992]}, "properties": {"URAU_CODE": "ES014K1", "URAU_CATG": "K", "CNTR_CODE": "ES", "URAU_NAME": "Pamplona", "CITY_CPTL": null, "CITY_KERN": null, "FUA_CODE": null, "NUTS3_2016": "ES220", "AREA_SQM": 189613060.171863, "NUTS3_2021": "ES220", "FID": "ES014K1"}, "id": "ES014K1"}, {"type": "Feature", "geometry": {"type": "Point", "coordinates": [-2.9732, 43.2842]}, "properties": {"URAU_CODE": "ES019K2", "URAU_CATG": "K", "CNTR_CODE": "ES", "URAU_NAME": "Bilbao", "CITY_CPTL": null, "CITY_KERN": null, "FUA_CODE": null, "NUTS3_2016": "ES213", "AREA_SQM": 174876399.123339, "NUTS3_2021": "ES213", "FID": "ES019K2"}, "id": "ES019K2"}, {"type": "Feature", "geometry": {"type": "Point", "coordinates": [-16.2653, 28.512]}, "properties": {"URAU_CODE": "ES025K1", "URAU_CATG": "K", "CNTR_CODE": "ES", "URAU_NAME": "Santa Cruz de Tenerife", "CITY_CPTL": null, "CITY_KERN": null, "FUA_CODE": null, "NUTS3_2016": "ES709", "AREA_SQM": 252545623.189532, "NUTS3_2021": "ES709", "FID": "ES025K1"}, "id": "ES025K1"}, {"type": "Feature", "geometry": {"type": "Point", "coordinates": [-0.7588, 38.4869]}, "properties": {"URAU_CODE": "ES073K1", "URAU_CATG": "K", "CNTR_CODE": "ES", "URAU_NAME": "Elda", "CITY_CPTL": null, "CITY_KERN": null, "FUA_CODE": null, "NUTS3_2016": "ES521", "AREA_SQM": 149919321.595349, "NUTS3_2021": "ES521", "FID": "ES073K1"}, "id": "ES073K1"}, {"type": "Feature", "geometry": {"type": "Point", "coordinates": [-3.5741, 37.1481]}, "properties": {"URAU_CODE": "ES501K1", "URAU_CATG": "K", "CNTR_CODE": "ES", "URAU_NAME": "Granada", "CITY_CPTL": null, "CITY_KERN": null, "FUA_CODE": null, "NUTS3_2016": "ES614", "AREA_SQM": 289369780.086897, "NUTS3_2021": "ES614", "FID": "ES501K1"}, "id": "ES501K1"}, {"type": "Feature", "geometry": {"type": "Point", "coordinates": [-16.5805, 28.3618]}, "properties": {"URAU_CODE": "ES550K1", "URAU_CATG": "K", "CNTR_CODE": "ES", "URAU_NAME": "Santa Cruz de Tenerife", "CITY_CPTL": null, "CITY_KERN": null, "FUA_CODE": null, "NUTS3_2016": "ES709", "AREA_SQM": 65539441.872847, "NUTS3_2021": "ES709", "FID": "ES550K1"}, "id": "ES550K1"}, {"type": "Feature", "geometry": {"type": "Point", "coordinates": [1.5964, 41.5653]}, "properties": {"URAU_CODE": "ES552K1", "URAU_CATG": "K", "CNTR_CODE": "ES", "URAU_NAME": "Barcelona", "CITY_CPTL": null, "CITY_KERN": null, "FUA_CODE": null, "NUTS3_2016": "ES511", "AREA_SQM": 46344056.6083435, "NUTS3_2021": "ES511", "FID": "ES552K1"}, "id": "ES552K1"}, {"type": "Feature", "geometry": {"type": "Point", "coordinates": [24.8769, 60.2858]}, "properties": {"URAU_CODE": "FI001K2", "URAU_CATG": "K", "CNTR_CODE": "FI", "URAU_NAME": "Helsinki Greater city", "CITY_CPTL": null, "CITY_KERN": null, "FUA_CODE": null, "NUTS3_2016": "FI1B1", "AREA_SQM": 779179487.301074, "NUTS3_2021": "FI1B1", "FID": "FI001K2"}, "id": "FI001K2"}, {"type": "Feature", "geometry": {"type": "Point", "coordinates": [2.3143, 48.8425]}, "properties": {"URAU_CODE": "FR001C1", "URAU_CATG": "K", "CNTR_CODE": "FR", "URAU_NAME": "European Greater City of Paris", "CITY_CPTL": "N", "CITY_KERN": null, "FUA_CODE": null, "NUTS3_2016": "FR101", "AREA_SQM": 1909682673.44889, "NUTS3_2021": "FR101", "FID": "FR001C1"}, "id": "FR001C1"}, {"type": "Feature", "geometry": {"type": "Point", "coordinates": [9.1061, 45.5546]}, "properties": {"URAU_CODE": "IT002K1", "URAU_CATG": "K", "CNTR_CODE": "IT", "URAU_NAME": "Milano", "CITY_CPTL": null, "CITY_KERN": null, "FUA_CODE": null, "NUTS3_2016": "ITC4C", "AREA_SQM": 1055260679.35382, "NUTS3_2021": "ITC4C", "FID": "IT002K1"}, "id": "IT002K1"}, {"type": "Feature", "geometry": {"type": "Point", "coordinates": [14.1929, 40.9185]}, "properties": {"URAU_CODE": "IT003K1", "URAU_CATG": "K", "CNTR_CODE": "IT", "URAU_NAME": "Napoli", "CITY_CPTL": null, "CITY_KERN": null, "FUA_CODE": null, "NUTS3_2016": "ITF33", "AREA_SQM": 849148091.752157, "NUTS3_2021": "ITF33", "FID": "IT003K1"}, "id": "IT003K1"}, {"type": "Feature", "geometry": {"type": "Point", "coordinates": [19.0153, 50.2204]}, "properties": {"URAU_CODE": "PL010K", "URAU_CATG": "K", "CNTR_CODE": "PL", "URAU_NAME": "Katowice", "CITY_CPTL": "N", "CITY_KERN": null, "FUA_CODE": null, "NUTS3_2016": "PL22A", "AREA_SQM": 1217946995.57595, "NUTS3_2021": "PL22A", "FID": "PL010K"}, "id": "PL010K"}, {"type": "Feature", "geometry": {"type": "Point", "coordinates": [-9.1745, 38.8075]}, "properties": {"URAU_CODE": "PT001K1", "URAU_CATG": "K", "CNTR_CODE": "PT", "URAU_NAME": "Lisboa", "CITY_CPTL": null, "CITY_KERN": null, "FUA_CODE": null, "NUTS3_2016": "PT170", "AREA_SQM": 636770797.724669, "NUTS3_2021": "PT170", "FID": "PT001K1"}, "id": "PT001K1"}, {"type": "Feature", "geometry": {"type": "Point", "coordinates": [-8.5555, 41.1305]}, "properties": {"URAU_CODE": "PT002K1", "URAU_CATG": "K", "CNTR_CODE": "PT", "URAU_NAME": "Porto", "CITY_CPTL": null, "CITY_KERN": null, "FUA_CODE": null, "NUTS3_2016": "PT11A", "AREA_SQM": 479324449.161434, "NUTS3_2021": "PT11A", "FID": "PT002K1"}, "id": "PT002K1"}, {"type": "Feature", "geometry": {"type": "Point", "coordinates": [18.0743, 59.1864]}, "properties": {"URAU_CODE": "SE001K1", "URAU_CATG": "K", "CNTR_CODE": "SE", "URAU_NAME": "Stockholm", "CITY_CPTL": null, "CITY_KERN": null, "FUA_CODE": null, "NUTS3_2016": "SE110", "AREA_SQM": 1457947983.80475, "NUTS3_2021": "SE110", "FID": "SE001K1"}, "id": "SE001K1"}, {"type": "Feature", "geometry": {"type": "Point", "coordinates": [-0.0881, 51.4073]}, "properties": {"URAU_CODE": "UK001K2", "URAU_CATG": "K", "CNTR_CODE": "UK", "URAU_NAME": "London", "CITY_CPTL": "Y", "CITY_KERN": null, "FUA_CODE": null, "NUTS3_2016": "UKI62", "AREA_SQM": 1575742158.67547, "NUTS3_2021": "UKI62", "FID": "UK001K2"}, "id": "UK001K2"}, {"type": "Feature", "geometry": {"type": "Point", "coordinates": [-1.918, 52.4971]}, "properties": {"URAU_CODE": "UK002K1", "URAU_CATG": "K", "CNTR_CODE": "UK", "URAU_NAME": "West Midlands urban area", "CITY_CPTL": null, "CITY_KERN": null, "FUA_CODE": null, "NUTS3_2016": "UKG31", "AREA_SQM": 803736362.60005, "NUTS3_2021": "UKG31", "FID": "UK002K1"}, "id": "UK002K1"}, {"type": "Feature", "geometry": {"type": "Point", "coordinates": [-4.5995, 55.8175]}, "properties": {"URAU_CODE": "UK004K1", "URAU_CATG": "K", "CNTR_CODE": "UK", "URAU_NAME": "Greater Glasgow", "CITY_CPTL": null, "CITY_KERN": null, "FUA_CODE": null, "NUTS3_2016": "UKM83", "AREA_SQM": 785873352.628811, "NUTS3_2021": "UKM83", "FID": "UK004K1"}, "id": "UK004K1"}, {"type": "Feature", "geometry": {"type": "Point", "coordinates": [-2.8411, 53.4054]}, "properties": {"URAU_CODE": "UK006K2", "URAU_CATG": "K", "CNTR_CODE": "UK", "URAU_NAME": "Liverpool", "CITY_CPTL": null, "CITY_KERN": null, "FUA_CODE": null, "NUTS3_2016": "UKD71", "AREA_SQM": 645664507.298163, "NUTS3_2021": "UKD71", "FID": "UK006K2"}, "id": "UK006K2"}, {"type": "Feature", "geometry": {"type": "Point", "coordinates": [-2.2842, 53.5152]}, "properties": {"URAU_CODE": "UK008K1", "URAU_CATG": "K", "CNTR_CODE": "UK", "URAU_NAME": "Greater Manchester", "CITY_CPTL": null, "CITY_KERN": null, "FUA_CODE": null, "NUTS3_2016": "UKD37", "AREA_SQM": 1276978815.7421, "NUTS3_2021": "UKD37", "FID": "UK008K1"}, "id": "UK008K1"}, {"type": "Feature", "geometry": {"type": "Point", "coordinates": [-6.0291, 54.527]}, "properties": {"URAU_CODE": "UK012K1", "URAU_CATG": "K", "CNTR_CODE": "UK", "URAU_NAME": "Greater Belfast", "CITY_CPTL": null, "CITY_KERN": null, "FUA_CODE": null, "NUTS3_2016": "UKN14", "AREA_SQM": 647781807.728609, "NUTS3_2021": "UKN0E", "FID": "UK012K1"}, "id": "UK012K1"}, {"type": "Feature", "geometry": {"type": "Point", "coordinates": [-1.7277, 54.9729]}, "properties": {"URAU_CODE": "UK013K1", "URAU_CATG": "K", "CNTR_CODE": "UK", "URAU_NAME": "Tyneside conurbation", "CITY_CPTL": null, "CITY_KERN": null, "FUA_CODE": null, "NUTS3_2016": "UKC22", "AREA_SQM": 405481941.451301, "NUTS3_2021": "UKC22", "FID": "UK013K1"}, "id": "UK013K1"}, {"type": "Feature", "geometry": {"type": "Point", "coordinates": [-1.1784, 52.5946]}, "properties": {"URAU_CODE": "UK014K1", "URAU_CATG": "K", "CNTR_CODE": "UK", "URAU_NAME": "Leicester", "CITY_CPTL": null, "CITY_KERN": null, "FUA_CODE": null, "NUTS3_2016": "UKF22", "AREA_SQM": 227436635.582868, "NUTS3_2021": "UKF22", "FID": "UK014K1"}, "id": "UK014K1"}, {"type": "Feature", "geometry": {"type": "Point", "coordinates": [-1.213, 50.8415]}, "properties": {"URAU_CODE": "UK023K1", "URAU_CATG": "K", "CNTR_CODE": "UK", "URAU_NAME": "Portsmouth", "CITY_CPTL": null, "CITY_KERN": null, "FUA_CODE": null, "NUTS3_2016": "UKJ35", "AREA_SQM": 196408436.229362, "NUTS3_2021": "UKJ35", "FID": "UK023K1"}, "id": "UK023K1"}, {"type": "Feature", "geometry": {"type": "Point", "coordinates": [-2.2714, 53.0009]}, "properties": {"URAU_CODE": "UK027K1", "URAU_CATG": "K", "CNTR_CODE": "UK", "URAU_NAME": "Stoke-on-Trent", "CITY_CPTL": null, "CITY_KERN": null, "FUA_CODE": null, "NUTS3_2016": "UKG24", "AREA_SQM": 304529572.80075, "NUTS3_2021": "UKG24", "FID": "UK027K1"}, "id": "UK027K1"}, {"type": "Feature", "geometry": {"type": "Point", "coordinates": [-1.0934, 52.9387]}, "properties": {"URAU_CODE": "UK029K1", "URAU_CATG": "K", "CNTR_CODE": "UK", "URAU_NAME": "Greater Nottingham", "CITY_CPTL": null, "CITY_KERN": null, "FUA_CODE": null, "NUTS3_2016": "UKF16", "AREA_SQM": 684399353.131729, "NUTS3_2021": "UKF16", "FID": "UK029K1"}, "id": "UK029K1"}, {"type": "Feature", "geometry": {"type": "Point", "coordinates": [-0.19, 50.8447]}, "properties": {"URAU_CODE": "UK515K1", "URAU_CATG": "K", "CNTR_CODE": "UK", "URAU_NAME": "Brighton and Hove", "CITY_CPTL": null, "CITY_KERN": null, "FUA_CODE": null, "NUTS3_2016": "UKJ21", "AREA_SQM": 125690863.795408, "NUTS3_2021": "UKJ21", "FID": "UK515K1"}, "id": "UK515K1"}, {"type": "Feature", "geometry": {"type": "Point", "coordinates": [-1.3543, 50.9307]}, "properties": {"URAU_CODE": "UK520K1", "URAU_CATG": "K", "CNTR_CODE": "UK", "URAU_NAME": "Southampton", "CITY_CPTL": null, "CITY_KERN": null, "FUA_CODE": null, "NUTS3_2016": "UKJ35", "AREA_SQM": 130384420.902525, "NUTS3_2021": "UKJ35", "FID": "UK520K1"}, "id": "UK520K1"}, {"type": "Feature", "geometry": {"type": "Point", "coordinates": [-1.9204, 50.7431]}, "properties": {"URAU_CODE": "UK539K1", "URAU_CATG": "K", "CNTR_CODE": "UK", "URAU_NAME": "Bournemouth", "CITY_CPTL": null, "CITY_KERN": null, "FUA_CODE": null, "NUTS3_2016": "UKK21", "AREA_SQM": 115032799.04247, "NUTS3_2021": "UKK24", "FID": "UK539K1"}, "id": "UK539K1"}, {"type": "Feature", "geometry": {"type": "Point", "coordinates": [0.6695, 51.5553]}, "properties": {"URAU_CODE": "UK541K1", "URAU_CATG": "K", "CNTR_CODE": "UK", "URAU_NAME": "Southend-on-Sea", "CITY_CPTL": null, "CITY_KERN": null, "FUA_CODE": null, "NUTS3_2016": "UKH31", "AREA_SQM": 87416817.6488576, "NUTS3_2021": "UKH31", "FID": "UK541K1"}, "id": "UK541K1"}, {"type": "Feature", "geometry": {"type": "Point", "coordinates": [-0.9209, 51.4177]}, "properties": {"URAU_CODE": "UK552K1", "URAU_CATG": "K", "CNTR_CODE": "UK", "URAU_NAME": "Reading", "CITY_CPTL": null, "CITY_KERN": null, "FUA_CODE": null, "NUTS3_2016": "UKJ11", "AREA_SQM": 219553708.823937, "NUTS3_2021": "UKJ11", "FID": "UK552K1"}, "id": "UK552K1"}, {"type": "Feature", "geometry": {"type": "Point", "coordinates": [-2.8063, 53.8799]}, "properties": {"URAU_CODE": "UK553K1", "URAU_CATG": "K", "CNTR_CODE": "UK", "URAU_NAME": "Blackpool", "CITY_CPTL": null, "CITY_KERN": null, "FUA_CODE": null, "NUTS3_2016": "UKD44", "AREA_SQM": 318252141.50879, "NUTS3_2021": "UKD44", "FID": "UK553K1"}, "id": "UK553K1"}, {"type": "Feature", "geometry": {"type": "Point", "coordinates": [-2.7026, 53.7748]}, "properties": {"URAU_CODE": "UK562K1", "URAU_CATG": "K", "CNTR_CODE": "UK", "URAU_NAME": "Preston", "CITY_CPTL": null, "CITY_KERN": null, "FUA_CODE": null, "NUTS3_2016": "UKD45", "AREA_SQM": 256338464.940763, "NUTS3_2021": "UKD45", "FID": "UK562K1"}, "id": "UK562K1"}, {"type": "Feature", "geometry": {"type": "Point", "coordinates": [-0.678, 51.348]}, "properties": {"URAU_CODE": "UK580K1", "URAU_CATG": "K", "CNTR_CODE": "UK", "URAU_NAME": "Rushmoor", "CITY_CPTL": null, "CITY_KERN": null, "FUA_CODE": null, "NUTS3_2016": "UKJ25", "AREA_SQM": 134178062.94887, "NUTS3_2021": "UKJ25", "FID": "UK580K1"}, "id": "UK580K1"}], "crs": {"type": "name", "properties": {"name": "urn:ogc:def:crs:EPSG::4326"}}}